{"0":{"address":"273 Đống Đa ","district":"Quận Hải Châu","image":"https://images.foody.vn/res/g9/88798/prof/s576x330/foody-mobile-da-jpg-590-636378645860798197.jpg","lat":16.073352,"local_image":"foody-mobile-da-jpg-590-636378645860798197.jpg","long":108.213889,"name":"Ship Đồ Ăn Đêm Đà Thành","octime":" 18:00 - 00:30","rate":7.6,"type":"Quán ăn","id":"j09G51xoD"},"1":{"address":"356 Ngũ Hành Sơn","district":"Quận Ngũ Hành Sơn","image":"https://images.foody.vn/res/g28/274429/prof/s576x330/foody-mobile-thai-jpg-834-636090331106103322.jpg","lat":16.0405127,"local_image":"foody-mobile-thai-jpg-834-636090331106103322.jpg","long":108.241792,"name":"Rómy Food - Giao Đồ Ăn Tận Nơi","octime":" 07:00 - 20:00","rate":7.7,"type":"Shop Online","id":"qn-bkmgH7C"},"2":{"address":"160/38 Nguyễn Hoàng","district":"Quận Hải Châu","image":"https://images.foody.vn/res/g30/294983/prof/s576x330/foody-mobile-m-banh-jpg-889-636147317263910778.jpg","lat":16.064587,"local_image":"foody-mobile-m-banh-jpg-889-636147317263910778.jpg","long":108.214429,"name":"Đồ Ăn Đặc Sản Các Miền Nana - Shop Online","octime":" 08:00 - 22:00","rate":9,"type":"Shop Online","id":"nxXIvOUwku"},"3":{"address":"196/36/03 Trần Cao Vân, P. Tam Thuận","district":"Quận Thanh Khê","image":"https://images.foody.vn/res/g69/688410/prof/s576x330/foody-mobile-hueb-jpg-527-636410011167051479.jpg","lat":16.0740288,"local_image":"foody-mobile-hueb-jpg-527-636410011167051479.jpg","long":108.2065728999999,"name":"Ship Đồ Ăn Đêm FF","octime":" 07:00 - 01:30","rate":0,"type":"Shop Online, ","id":"BvDU-2vA7"},"4":{"address":"196 Trần Cao Vân","district":"Quận Thanh Khê","image":"https://images.foody.vn/res/g67/662959/prof/s576x330/foody-mobile-mmif-jpg-839-636317503075002489.jpg","lat":16.0739669,"local_image":"foody-mobile-mmif-jpg-839-636317503075002489.jpg","long":108.2065124999999,"name":"ShipdoanFF - Ship Đồ Ăn Đà Nẵng","octime":" 07:00 - 23:30","rate":0,"type":"Shop Online","id":"S4Sy8X7_f"},"5":{"address":"74 Phan Thanh ","district":"Quận Thanh Khê","image":"https://images.foody.vn/res/g69/681573/prof/s576x330/foody-mobile-dn-jpg-946-636383953527882793.jpg","lat":16.063335,"local_image":"foody-mobile-dn-jpg-946-636383953527882793.jpg","long":108.208595,"name":"Đồ Ăn Trưa & Khuya Đà Nẵng - Shop Online","octime":" 09:30 - 01:00","rate":0,"type":"Shop/Cửa hàng, ","id":"C9M_FJS9e"},"6":{"address":"86/7 Mai Lão Bạng","district":"Quận Hải Châu","image":"https://images.foody.vn/res/g89/884527/prof/s576x330/foody-upload-api-foody-mobile-do-an-190123155031.jpg","lat":16.084507605965,"local_image":"foody-upload-api-foody-mobile-do-an-190123155031.jpg","long":108.2174355536699,"name":"Đồ Ăn Nhập Khẩu - Mai Lão Bạng","octime":" 09:00 - 21:00","rate":0,"type":"Ăn vặt/vỉa hè","id":"G2hb71Kfh"},"7":{"address":"69 Hoài Thanh","district":"Quận Ngũ Hành Sơn","image":"https://images.foody.vn/res/g2/11137/prof/s576x330/foody-upload-api-foody-mobile-mumtaz-am-thuc-an-do-180621104835.jpg","lat":16.048584,"local_image":"foody-upload-api-foody-mobile-mumtaz-am-thuc-an-do-180621104835.jpg","long":108.237029,"name":"Mumtaz - Ẩm Thực Ấn Độ","octime":" 10:00 - 22:00","rate":8.2,"type":"Nhà hàng","id":"rhs6tFK7R"},"8":{"address":"174 Nguyễn Duy Trinh","district":"Quận Ngũ Hành Sơn","image":"https://images.foody.vn/res/g89/885893/prof/s576x330/foody-upload-api-foody-mobile-av-1-190129173649.jpg","lat":15.994889,"local_image":"foody-upload-api-foody-mobile-av-1-190129173649.jpg","long":108.264327,"name":"Quỳnh Béo - Đồ Ăn Vặt Hà Nội","octime":" 10:00 - 21:00","rate":0,"type":"Quán ăn","id":"sI-ooEykr"},"9":{"address":"12 An Thượng 5, P. Mỹ An","district":"Quận Ngũ Hành Sơn","image":"https://images.foody.vn/res/g67/669694/prof/s576x330/foody-mobile-an-do-jpg-181-636340694275758391.jpg","lat":16.048904,"local_image":"foody-mobile-an-do-jpg-181-636340694275758391.jpg","long":108.245354,"name":"Tandoori Nights - Nhà Hàng Ấn Độ","octime":" 07:00 - 22:00","rate":9.4,"type":"Nhà hàng","id":"v4RNkuxov"},"10":{"address":"Lô A1 - 04 Khu Biệt Thự Đảo Xanh","district":"Quận Hải Châu","image":"https://images.foody.vn/video/s800x450/foody-thumbnail%20web-636368568199988016.jpg","lat":16.0473935854363,"local_image":"foody-thumbnail%20web-636368568199988016.jpg","long":108.2276333123445,"name":"Nơm Bistro - Món Việt","octime":" 07:00 - 22:00","rate":7.6,"type":"Nhà hàng","id":"9mxJz7aSG"},"11":{"address":"207 Nguyễn Văn Thoại","district":"Quận Sơn Trà","image":"https://images.foody.vn/res/g88/878172/prof/s576x330/foody-upload-api-foody-mobile-ghe-rang-me-3-190108172909.jpg","lat":16.055579,"local_image":"foody-upload-api-foody-mobile-ghe-rang-me-3-190108172909.jpg","long":108.243667,"name":"Nhà Hàng Đủng Đỉnh - Các Món Ăn Việt Nam","octime":" 00:00 - 03:00 | 09:00 - 23:59","rate":8.6,"type":"Nhà hàng","id":"bJ-jaND9j"},"12":{},"13":{"address":"22 Bùi Quốc Hưng","district":"Quận Sơn Trà","image":"https://images.foody.vn/res/g81/800507/prof/s576x330/foody-upload-api-foody-mobile-y-190215150742.jpg","lat":16.101152,"local_image":"foody-upload-api-foody-mobile-y-190215150742.jpg","long":108.243536,"name":"Pozaa Tea - Bùi Quốc Hưng","octime":" 07:00 - 21:30","rate":9.7,"type":"Café/Dessert","id":"STiPVcnopB"},"14":{"address":"Tầng 4, TTTM Parkson, 255 - 257 Hùng Vương","district":"Quận Thanh Khê","image":"https://images.foody.vn/res/g17/160123/prof/s576x330/foody-mobile-foody-huong-vi-bac-t-913-635754901115389232.jpg","lat":16.066644,"local_image":"foody-mobile-foody-huong-vi-bac-t-913-635754901115389232.jpg","long":108.213098,"name":"Hương Vị Bắc - TTTM Parkson Đà Nẵng","octime":" 10:00 - 21:00","rate":7.8,"type":"Nhà hàng","id":"QKvltiAv4"},"15":{},"16":{"address":"38 Hồ Xuân Hương","district":"Quận Ngũ Hành Sơn","image":"https://images.foody.vn/res/g80/792158/prof/s576x330/foody-upload-api-foody-mobile-an-nam-1-jpg-181101085906.jpg","lat":16.03889,"local_image":"foody-upload-api-foody-mobile-an-nam-1-jpg-181101085906.jpg","long":108.244666,"name":"An Nam Restaurant - Ẩm Thực Việt","octime":" 06:00 - 22:00","rate":9,"type":"Nhà hàng","id":"014wMc6NR"},"17":{"address":"33 Chu Văn An, P. Bình Thuận","district":"Quận Hải Châu","image":"https://images.foody.vn/res/g15/141307/prof/s576x330/foody-mobile-sashimi-2-jpg-266-635689400759751481.jpg","lat":16.056926,"local_image":"foody-mobile-sashimi-2-jpg-266-635689400759751481.jpg","long":108.217549,"name":"Takumi Restaurant - Ẩm Thực Nhật","octime":" 11:00 - 13:30 | 17:00 - 22:30","rate":8.2,"type":"Nhà hàng","id":"u24y0nX63"},"18":{"address":"90 Châu Thị Vĩnh Tế","district":"Quận Ngũ Hành Sơn","image":"https://images.foody.vn/res/g10/90651/prof/s576x330/foody-upload-api-foody-mobile-hang-s-kitchen-mon-a-180622104730.jpg","lat":16.051238,"local_image":"foody-upload-api-foody-mobile-hang-s-kitchen-mon-a-180622104730.jpg","long":108.24023,"name":"Hang's Kitchen - Món Âu & Mexico","octime":" 07:30 - 23:00","rate":7.7,"type":"Nhà hàng","id":"iVQdXwH7E"},"19":{"address":"Lô 1409 Xô Viết Nghệ Tĩnh (Số 108 Xô Viết Nghệ Tĩnh)","district":"Quận Hải Châu","image":"https://images.foody.vn/res/g76/758932/prof/s576x330/foody-upload-api-foody-mobile-dac-san-lao-jpg-180912112427.jpg","lat":16.0321,"local_image":"foody-upload-api-foody-mobile-dac-san-lao-jpg-180912112427.jpg","long":108.215169,"name":"Đặc Sản Lào - Nhậu Bình Dân","octime":" 08:30 - 23:30","rate":7,"type":"Quán nhậu","id":"sdb36vHl7"},"20":{"address":"36 Đỗ Anh Hàn","district":"Quận Sơn Trà","image":"https://images.foody.vn/res/g24/232237/prof/s576x330/foody-mobile-foody-mobile-foody-m-302-635975241782710788.jpg","lat":16.08252,"local_image":"foody-mobile-foody-mobile-foody-m-302-635975241782710788.jpg","long":108.234487,"name":"Mì Quảng - Đỗ Anh Hàn","octime":" 06:00 - 22:00","rate":0,"type":"Quán ăn","id":"p3J97eCUP"},"21":{},"22":{"address":"372 - 376 Võ Nguyên Giáp","district":"Quận Ngũ Hành Sơn","image":"https://images.foody.vn/video/s800x450/foody-thumb-636432260642801786.jpg","lat":16.043648,"local_image":"foody-thumb-636432260642801786.jpg","long":108.247936,"name":"Little Tokyo - Restaurant & Bar","octime":" 10:00 - 23:00","rate":7.7,"type":"Nhà hàng","id":"r7q7W9wTi"},"23":{"address":"K94 Lê Hữu Trác","district":"Quận Sơn Trà","image":"https://images.foody.vn/res/g63/625516/prof/s576x330/foody-mobile-334555-jpg-213-636202637586366441.jpg","lat":16.057965,"local_image":"foody-mobile-334555-jpg-213-636202637586366441.jpg","long":108.2387,"name":"Lem Food - Shop Online","octime":" 08:00 - 22:00","rate":8.3,"type":"Shop Online","id":"X_nUyRhZb"},"24":{"address":"K16/306 Hùng Vương ","district":"Quận Hải Châu","image":"https://images.foody.vn/res/g66/657765/prof/s576x330/foody-mobile-m-bep-jpg-575-636298512190894263.jpg","lat":16.068616,"local_image":"foody-mobile-m-bep-jpg-575-636298512190894263.jpg","long":108.22452,"name":"Bếp Nhà Tui Nấu - Shop Online","octime":" 06:30 - 21:30","rate":4.2,"type":"Shop Online","id":"0XwTkRABa"},"25":{"address":"37 Tiên Sơn 5","district":"Quận Hải Châu","image":"https://images.foody.vn/res/g80/793119/prof/s576x330/foody-upload-api-foody-mobile-44052865_27142850683-181102141142.jpg","lat":16.033944,"local_image":"foody-upload-api-foody-mobile-44052865_27142850683-181102141142.jpg","long":108.219149,"name":"Gạo Quán - Chè - Sữa Chua & Các Món Ăn Vặt","octime":" 17:30 - 23:00","rate":0,"type":"Ăn vặt/vỉa hè","id":"x5KtjnDHc"},"26":{"address":"1 Ngô Gia Khảm","district":"Quận Thanh Khê","image":"https://images.foody.vn/res/g78/777590/prof/s576x330/foody-upload-api-foody-mobile-com-ga-5-jpg-180913081743.jpg","lat":16.068128,"local_image":"foody-upload-api-foody-mobile-com-ga-5-jpg-180913081743.jpg","long":108.191807,"name":"Bí Đỏ - Cơm Gà Hội An","octime":" 10:00 - 20:00","rate":0,"type":"Quán ăn","id":"S-hZoe1Km"},"27":{"address":"26 Trần Bình Trọng","district":"Quận Hải Châu","image":"https://images.foody.vn/res/g16/156447/prof/s576x330/foody-mobile-thop-jpg-950-636383830500844179.jpg","lat":16.066179,"local_image":"foody-mobile-thop-jpg-950-636383830500844179.jpg","long":108.219178,"name":"Tiệm Ăn Triều Hợp","octime":" 10:00 - 22:00","rate":7.8,"type":"Quán ăn","id":"TM96yJiHC"},"28":{"address":"169F Trưng Nữ Vương","district":"Quận Hải Châu","image":"https://images.foody.vn/res/g65/642488/prof/s576x330/foody-upload-api-foody-mobile-quan-chay-an-s-jpg-180620083338.jpg","lat":16.055274,"local_image":"foody-upload-api-foody-mobile-quan-chay-an-s-jpg-180620083338.jpg","long":108.220143,"name":"ANS - Đặc Sản Chay Đà Nẵng","octime":" 07:30 - 22:00","rate":7,"type":"Ăn chay","id":"aL7NxjpY6"},"29":{"address":"02 Lê Thanh Nghị","district":"Quận Hải Châu","image":"https://images.foody.vn/res/g31/309923/prof/s576x330/foody-upload-api-foody-mobile-the-authentic-hoian--180621110223.jpg","lat":16.0443421326716,"local_image":"foody-upload-api-foody-mobile-the-authentic-hoian--180621110223.jpg","long":108.2171669128281,"name":"The Authentic Hoian Restaurant & Cafe","octime":" 06:00 - 22:00","rate":8.5,"type":"Nhà hàng, ","id":"2HDyir8rr"},"30":{"address":"6 An Thượng 1, P. Mỹ An","district":"Quận Ngũ Hành Sơn","image":"https://images.foody.vn/res/g20/195891/prof/s576x330/foody-mobile-trp-jpg-468-636246493856572179.jpg","lat":16.0499216411756,"local_image":"foody-mobile-trp-jpg-468-636246493856572179.jpg","long":108.2480543106794,"name":"Tranquilos - Restaurant & Bar","octime":" 08:00 - 22:00","rate":7.9,"type":"Bar/Pub","id":"4eTM28y1m"},"31":{"address":"K25/16 Lý Thường Kiệt","district":"Quận Hải Châu","image":"https://images.foody.vn/res/g30/291083/prof/s576x330/foody-mobile-m-mon-jpg-561-636377031232657561.jpg","lat":16.079959,"local_image":"foody-mobile-m-mon-jpg-561-636377031232657561.jpg","long":108.220928,"name":"Mây Restaurant - Món Việt","octime":" 11:00 - 22:00","rate":8.1,"type":"Nhà hàng","id":"3XEyw_dbV"},"32":{"address":"Đối Diện 262 Hồ Tùng Mậu, P. Hòa Minh","district":"Quận Liên Chiểu","image":"https://images.foody.vn/res/g74/734825/prof/s576x330/foody-upload-api-foody-mobile-ca-nuong-jpg-180507113126.jpg","lat":16.0738,"local_image":"foody-upload-api-foody-mobile-ca-nuong-jpg-180507113126.jpg","long":108.157453,"name":"Chí Tài - Ẩm Thực Sài Gòn","octime":" 10:00 - 22:00","rate":0,"type":"Quán nhậu","id":"QiF77PurR"},"33":{"address":"51 Võ Nguyên Giáp","district":"Quận Ngũ Hành Sơn","image":"https://images.foody.vn/video/s800x450/foody-thumbail%20web-636413401239790903.jpg","lat":16.056096,"local_image":"foody-thumbail%20web-636413401239790903.jpg","long":108.247022,"name":"Hải Sản Phố","octime":" 10:00 - 23:00","rate":7.5,"type":"Nhà hàng","id":"BROwHs1wt"},"34":{"address":"45 Hoàng Thị Loan","district":"Quận Liên Chiểu","image":"https://images.foody.vn/video/s800x450/foody-^05b5b06808c0586076455f2da6bbc1481c9771674337ea8ac1^pimgpsh_fullsize_distr-636313291984590442.jpg","lat":16.063465,"local_image":"foody-^05b5b06808c0586076455f2da6bbc1481c9771674337ea8ac1^pimgpsh_fullsize_distr-636313291984590442.jpg","long":108.176062,"name":"An Viên Coffee","octime":" 07:00 - 22:00","rate":7.7,"type":"Café/Dessert","id":"JDCTzXlvi"},"35":{"address":"67 Đinh Công Trứ","district":"Quận Sơn Trà","image":"https://images.foody.vn/res/g71/706374/prof/s576x330/foody-mobile-ly-jpg.jpg","lat":16.068306,"local_image":"foody-mobile-ly-jpg.jpg","long":108.230845,"name":"3Ly Coffee House & Food","octime":" 09:00 - 21:00","rate":8,"type":"Café/Dessert","id":"7Ik8BGDDH"},"36":{"address":"60 Pasteur","district":"Quận Hải Châu","image":"https://images.foody.vn/video/s800x450/foody-upload-api-foody-foody-upload-api-foody-album1-4-jpg-18122111-190111184117.jpg","lat":16.06979,"local_image":"foody-upload-api-foody-foody-upload-api-foody-album1-4-jpg-18122111-190111184117.jpg","long":108.2181459999999,"name":"Nhà Hàng Chả Cá Toàn Thắng","octime":" 11:00 - 22:00","rate":8.5,"type":"Nhà hàng","id":"pQWZ8DMy0"},"37":{},"38":{"address":"K129/80 Tiểu La, P. Hòa Cường Bắc","district":"Quận Hải Châu","image":"https://images.foody.vn/res/g29/285754/prof/s576x330/foody-upload-api-foody-mobile-ha-an-jpg-180417114036.jpg","lat":16.0454843119643,"local_image":"foody-upload-api-foody-mobile-ha-an-jpg-180417114036.jpg","long":108.2181466330311,"name":"Chân Gà Sả Ớt Hà An","octime":" 07:00 - 23:30","rate":7.2,"type":"Ăn vặt/vỉa hè","id":"2VIn3Syl8"},"39":{"address":"Kiệt 408 Hoàng Diệu","district":"Quận Hải Châu","image":"https://images.foody.vn/res/g2/13161/prof/s576x330/foody-mobile-hr-jpg-651-636137618433401192.jpg","lat":16.054617,"local_image":"foody-mobile-hr-jpg-651-636137618433401192.jpg","long":108.216812,"name":"Tư Hề - Đặc Sản Nướng","octime":" 16:30 - 22:30","rate":7.2,"type":"Quán ăn","id":"G-22MCks9"},"40":{},"41":{"address":"Ngã Ba Yên Bái - Phạm Hồng Thái","district":"Quận Hải Châu","image":"https://images.foody.vn/res/g13/127057/prof/s576x330/foody-mobile-ba-noi-quan-jpg-741-636052324658563776.jpg","lat":16.067032,"local_image":"foody-mobile-ba-noi-quan-jpg-741-636052324658563776.jpg","long":108.222411,"name":"Bà Nội Quán - Yên Bái","octime":" 06:00 - 18:00","rate":6.8,"type":"Ăn vặt/vỉa hè","id":"KYzosRj_k"},"42":{"address":"86 Châu Thị Vĩnh Tế, P. Mỹ An","district":"Quận Ngũ Hành Sơn","image":"https://images.foody.vn/res/g21/200622/prof/s576x330/foody-mobile-de2-jpg-176-635877637542280629.jpg","lat":16.0513116392874,"local_image":"foody-mobile-de2-jpg-176-635877637542280629.jpg","long":108.2402742281556,"name":"Quán Dê 86","octime":" 16:00 - 22:00","rate":7.8,"type":"Quán ăn, ","id":"HFS1vZo_w"},"43":{"address":"457 Điện Biên Phủ","district":"Quận Thanh Khê","image":"https://images.foody.vn/res/g23/224219/prof/s576x330/foody-mobile-2-cua-hap-2-jpg-241-635950989389504069.jpg","lat":16.065541,"local_image":"foody-mobile-2-cua-hap-2-jpg-241-635950989389504069.jpg","long":108.18731,"name":"New Space - Cafe & Các Món Nhậu","octime":" 06:30 - 23:00","rate":7.6,"type":"Café/Dessert, ","id":"OE_REDu5-"},"44":{"address":"137 Huỳnh Thúc Kháng","district":"Quận Hải Châu","image":"https://images.foody.vn/res/g24/233565/prof/s576x330/foody-mobile-iaqb7ibx-jpg-633-636232700749620879.jpg","lat":16.058733,"local_image":"foody-mobile-iaqb7ibx-jpg-633-636232700749620879.jpg","long":108.218197,"name":"Simple - Trái Cây Lắc & Tháp Trà Sữa","octime":" 13:30 - 22:00","rate":7.6,"type":"Ăn vặt/vỉa hè","id":"YYOFE8Pig"},"45":{"address":"225 Nguyễn Chí Thanh","district":"Quận Hải Châu","image":"https://images.foody.vn/res/g1/3233/prof/s576x330/foody-upload-api-foody-mobile-phi-lu-1-jpg-180620093908.jpg","lat":16.067027,"local_image":"foody-upload-api-foody-mobile-phi-lu-1-jpg-180620093908.jpg","long":108.2209,"name":"Phì Lũ 1","octime":" 08:00 - 22:30","rate":7.6,"type":"Nhà hàng, ","id":"HmSdxU9rs"},"46":{"address":"56 Hoàng Bích Sơn","district":"Quận Sơn Trà","image":"https://images.foody.vn/res/g63/624811/prof/s576x330/foody-mobile-bao-an-jpg-494-636295950564299402.jpg","lat":16.075336,"local_image":"foody-mobile-bao-an-jpg-494-636295950564299402.jpg","long":108.240974,"name":"Thực Dưỡng Bảo An","octime":" 06:00 - 19:30","rate":6.3,"type":"Ăn chay","id":"8Ysv5QIWU"},"47":{"address":"1 Phan Đăng Lưu, Khu Ẩm Thực Helio","district":"Quận Hải Châu","image":"https://images.foody.vn/res/g67/669101/prof/s576x330/foody-mobile-xeo-tinh-jpg-336-636343319362357517.jpg","lat":16.039142,"local_image":"foody-mobile-xeo-tinh-jpg-336-636343319362357517.jpg","long":108.226281,"name":"Bà Tình - Bánh Xèo Miền Trung - Phan Đăng Lưu","octime":" 17:00 - 22:30","rate":7.9,"type":"Quán ăn","id":"sgNUA5yxC"},"48":{"address":"118 Yên Bái","district":"Quận Hải Châu","image":"https://images.foody.vn/video/s800x450/foody-upload-api-foody-32944454_1421662357934227_677838968373169356-180518170854.jpg","lat":16.065294,"local_image":"foody-upload-api-foody-32944454_1421662357934227_677838968373169356-180518170854.jpg","long":108.222239,"name":"Chu Chu - Nhà Hàng Hàn Quốc","octime":" 10:00 - 21:00","rate":8.9,"type":"Nhà hàng","id":"XRRcf3Tad"},"49":{"address":"Lô 11-A1 Khu Dân Cư Vạn Tường, Nguyễn An Ninh","district":"Quận Liên Chiểu","image":"https://images.foody.vn/video/s800x450/foody-upload-api-foody-foody-quan-cay-nhau-binh-dan-860-63663959982-181221172343.jpg","lat":16.0889597,"local_image":"foody-upload-api-foody-foody-quan-cay-nhau-binh-dan-860-63663959982-181221172343.jpg","long":108.1502077,"name":"Quán Cay - Nhậu Bình Dân","octime":" 10:00 - 22:00","rate":9.2,"type":"Quán nhậu","id":"RuERzBtCM"},"50":{"address":"13 An Thượng 31","district":"Quận Ngũ Hành Sơn","image":"https://images.foody.vn/res/g75/748675/prof/s576x330/foody-upload-api-foody-mobile-te-jpg-180608111342.jpg","lat":16.050621,"local_image":"foody-upload-api-foody-mobile-te-jpg-180608111342.jpg","long":108.246923,"name":"Golden Crack - Coffee - Bar & Restaurant","octime":" 09:00 - 23:00","rate":8.8,"type":"Café/Dessert","id":"UeuYRBkAb"},"51":{"address":"111 Lương Nhữ Hộc, P. Hoà Cường Bắc","district":"Quận Hải Châu","image":"https://images.foody.vn/res/g76/751685/prof/s576x330/foody-upload-api-foody-mobile-tom-su-jpg-180621134926.jpg","lat":16.038205,"local_image":"foody-upload-api-foody-mobile-tom-su-jpg-180621134926.jpg","long":108.212084,"name":"Bé Bủm - Nhậu Bình Dân","octime":" 14:00 - 02:00","rate":0,"type":"Quán nhậu","id":"IQuWnrQjb"},"52":{"address":"115 Đỗ Quang, P. Vĩnh Trung","district":"Quận Thanh Khê","image":"https://images.foody.vn/res/g76/754099/prof/s576x330/foody-upload-api-foody-mobile-foody-bun-dau-thi-me-180704170113.jpg","lat":16.058571,"local_image":"foody-upload-api-foody-mobile-foody-bun-dau-thi-me-180704170113.jpg","long":108.212277,"name":"Bún Đậu Thị Mẹt - Đỗ Quang","octime":" 10:00 - 21:00","rate":6.4,"type":"Quán ăn","id":"Ozi-KwNdz"},"53":{"address":"4 Trần Văn Đang, P. Khuê Trung","district":"Quận Cẩm Lệ","image":"https://images.foody.vn/res/g77/765939/prof/s576x330/foody-upload-api-foody-mobile-full-house-jpeg-180807145613.jpg","lat":16.019883,"local_image":"foody-upload-api-foody-mobile-full-house-jpeg-180807145613.jpg","long":108.207523,"name":"FULL HOUSE Everywhere - Milk Tea & Pizza","octime":" 09:00 - 22:00","rate":7.1,"type":"Quán ăn","id":"DxleKa5VW"},"54":{"address":"19 An Hải Bắc 7","district":"Quận Sơn Trà","image":"https://images.foody.vn/res/g80/792692/prof/s576x330/foody-upload-api-foody-mobile-45011775_19638527125-181102083826.jpg","lat":16.079694,"local_image":"foody-upload-api-foody-mobile-45011775_19638527125-181102083826.jpg","long":108.232069,"name":"Lệ Lùn - Bún Đậu & Mì Cay","octime":" 15:00 - 22:00","rate":3,"type":"Quán ăn","id":"n3O3Ra2h2"},"55":{"address":"466 Núi Thành (1 Trịnh Công Sơn)","district":"Quận Hải Châu","image":"https://images.foody.vn/res/g80/794817/prof/s576x330/foody-upload-api-foody-mobile-tra-sua-jpg-181106112601.jpg","lat":16.034573,"local_image":"foody-upload-api-foody-mobile-tra-sua-jpg-181106112601.jpg","long":108.222449,"name":"Kawaii Milktea - Núi Thành","octime":" 18:00 - 22:00","rate":8.4,"type":"Ăn vặt/vỉa hè","id":"n8295qzCm"},"56":{"address":"4 An Cư 6","district":"Quận Sơn Trà","image":"https://images.foody.vn/res/g80/798923/prof/s576x330/foody-upload-api-foody-mobile-cafe-den-jpg-181113091309.jpg","lat":16.075032,"local_image":"foody-upload-api-foody-mobile-cafe-den-jpg-181113091309.jpg","long":108.242129,"name":"Tiệm Cafe 1993","octime":" 06:30 - 23:00","rate":0,"type":"Café/Dessert","id":"pGa7GQSYz"},"57":{"address":"169 Tô Hiến Thành","district":"Quận Sơn Trà","image":"https://images.foody.vn/res/g81/803432/prof/s576x330/foody-upload-api-foody-mobile-thit-nuong-cuon-jpg-181120091131.jpg","lat":16.0559047,"local_image":"foody-upload-api-foody-mobile-thit-nuong-cuon-jpg-181120091131.jpg","long":108.2445311999999,"name":"Quán Nhà Lá","octime":" 16:00 - 22:30","rate":0,"type":"Quán ăn","id":"uLA_kCGv_"},"58":{"address":"699 Trần Cao Vân","district":"Quận Thanh Khê","image":"https://images.foody.vn/res/g79/787921/prof/s576x330/foody-upload-api-foody-mobile-banh-mi-pa-te-jpg-181017100533.jpg","lat":16.069909,"local_image":"foody-upload-api-foody-mobile-banh-mi-pa-te-jpg-181017100533.jpg","long":108.184439,"name":"Bánh Mì Hội An Madam Bee","octime":" 15:00 - 21:00","rate":0,"type":"Ăn vặt/vỉa hè","id":"6o9znrcFM"},"59":{"address":"55 Nguyễn Huy Tưởng","district":"Quận Liên Chiểu","image":"https://images.foody.vn/res/g88/875804/prof/s576x330/foody-upload-api-foody-mobile-com-ga-27-190104114413.jpg","lat":16.054031,"local_image":"foody-upload-api-foody-mobile-com-ga-27-190104114413.jpg","long":108.169393,"name":"Cơm Gà 27","octime":" 10:00 - 21:00","rate":0,"type":"Quán ăn","id":"H_zsECx9k"},"60":{"address":"521 Trần Cao Vân","district":"Quận Thanh Khê","image":"https://images.foody.vn/res/g87/864156/prof/s576x330/foody-upload-api-foody-mobile-banh-duc-jpg-181218165239.jpg","lat":16.071243,"local_image":"foody-upload-api-foody-mobile-banh-duc-jpg-181218165239.jpg","long":108.19041,"name":"Đặc Sản Truyền Thống - Bánh Đúc & Bánh Tổ","octime":" 07:00 - 21:00","rate":2.8,"type":"Quán ăn","id":"_NNVHT9ZB"},"61":{"address":"31 Đoàn Phú Tứ","district":"Quận Liên Chiểu","image":"https://images.foody.vn/res/g86/859827/prof/s576x330/foody-upload-api-foody-mobile-47377660_75378880162-181207090730.jpg","lat":16.068587,"local_image":"foody-upload-api-foody-mobile-47377660_75378880162-181207090730.jpg","long":108.146344,"name":"Liều - Trà Sữa & Ăn Vặt","octime":" 06:00 - 22:00","rate":8.8,"type":"Ăn vặt/vỉa hè","id":"4QdEe4LFo"},"62":{"address":"117 Phan Đăng Lưu","district":"Quận Hải Châu","image":"https://images.foody.vn/res/g26/252576/prof/s576x330/foody-mobile--05ef15dc394a15fbd36-964-636034008801586360.jpg","lat":16.036102,"local_image":"foody-mobile--05ef15dc394a15fbd36-964-636034008801586360.jpg","long":108.2163347,"name":"Quán Chay An Lạc Tâm","octime":" 06:30 - 14:00 | 16:00 - 20:00","rate":7.3,"type":"Quán ăn","id":"DiBlTzLsE"},"63":{"address":"Lô 3 Lê Văn Duyệt","district":"Quận Sơn Trà","image":"https://images.foody.vn/res/g25/240656/prof/s576x330/foody-mobile-foody-khu-du-lich-si-869-636002052117705992.jpg","lat":16.096648,"local_image":"foody-mobile-foody-khu-du-lich-si-869-636002052117705992.jpg","long":108.2242,"name":"Nhà Hàng Sinh Thái Chân Trời Góc Bể","octime":" 06:00 - 20:00","rate":7.3,"type":"Nhà hàng","id":"TrMhzI_r-"},"64":{},"65":{"address":"48 Trưng Nữ Vương","district":"Quận Hải Châu","image":"https://images.foody.vn/res/g2/12250/prof/s576x330/foody-mobile-2488-jpg-166-636185210747045114.jpg","lat":16.059836,"local_image":"foody-mobile-2488-jpg-166-636185210747045114.jpg","long":108.222279,"name":"Quán 48 - Cháo Gà & Vịt","octime":" 09:00 - 21:00","rate":6.6,"type":"Quán ăn","id":"aSaY1Fxkh"},"66":{"address":"1369 Nguyễn Tất Thành","district":"Quận Thanh Khê","image":"https://images.foody.vn/res/g13/123310/prof/s576x330/foody-upload-api-foody-mobile-cua-jpg-180329135141.jpg","lat":16.0748663459125,"local_image":"foody-upload-api-foody-mobile-cua-jpg-180329135141.jpg","long":108.1808733567595,"name":"Đại Hỷ Quán - Gà & Hải Sản Tự Chọn","octime":" 11:00 - 23:00","rate":7.2,"type":"Quán ăn","id":"MjS1u0nGQ"},"67":{"address":"232 Trần Cao Vân","district":"Quận Thanh Khê","image":"https://images.foody.vn/video/s800x450/foody-thumbnail%20web-636359962550902407.jpg","lat":16.071909,"local_image":"foody-thumbnail%20web-636359962550902407.jpg","long":108.205714,"name":"Sáu Hào - Đặc Sản Gỏi Cá","octime":" 10:00 - 23:00","rate":7.5,"type":"Quán ăn","id":"mn6IUn0ap"},"68":{"address":"122 Quang Trung, P. Thạch Thang","district":"Quận Hải Châu","image":"https://images.foody.vn/video/s800x450/foody-upload-api-foody-foody-paramount-restaurant-888-6367580506183-181221155344.jpg","lat":16.074325,"local_image":"foody-upload-api-foody-foody-paramount-restaurant-888-6367580506183-181221155344.jpg","long":108.217025,"name":"Paramount Steak & Coffee","octime":" 09:00 - 21:00","rate":8.2,"type":"Nhà hàng","id":"tEm08WWYa"},"69":{"address":"38 Lê Vĩnh Khanh, P. Hoà An","district":"Quận Cẩm Lệ","image":"https://images.foody.vn/res/g65/648477/prof/s576x330/foody-mobile-nho-jpg-734-636266517880323151.jpg","lat":16.050289,"local_image":"foody-mobile-nho-jpg-734-636266517880323151.jpg","long":108.1752,"name":"Asagi Store - Trái Cây Sạch","octime":" 08:00 - 21:00","rate":7.8,"type":"Shop Online, ","id":"7-0wLsXqx"},"70":{"address":"258 Nguyễn Văn Linh (Số Mới)","district":"Quận Thanh Khê","image":"https://images.foody.vn/res/g15/140372/prof/s576x330/foody-upload-api-foody-mobile-quan-nhau-doi-gio-ng-180629101655.jpg","lat":16.059523,"local_image":"foody-upload-api-foody-mobile-quan-nhau-doi-gio-ng-180629101655.jpg","long":108.209221,"name":"Quán Nhậu Đổi Gió - Nguyễn Văn Linh","octime":" 17:00 - 22:00","rate":6.9,"type":"Quán ăn","id":"UcgaLTE08"},"71":{"address":"126/30 Nguyễn Duy Hiệu","district":"Quận Sơn Trà","image":"https://images.foody.vn/res/g13/128028/prof/s576x330/foody-mobile--20-_hinhmob-jpg-819-635756016442769441.jpg","lat":16.055013,"local_image":"foody-mobile--20-_hinhmob-jpg-819-635756016442769441.jpg","long":108.240625,"name":"Pizza Base","octime":" 10:00 - 22:00","rate":7.7,"type":"Quán ăn","id":"SQNcYhVz5"},"72":{"address":"247 Nguyễn Tất Thành","district":"Quận Thanh Khê","image":"https://images.foody.vn/res/g22/219272/prof/s576x330/foody-mobile-2-cua-hap-2-jpg-183-635937221045520658.jpg","lat":16.0802744302905,"local_image":"foody-mobile-2-cua-hap-2-jpg-183-635937221045520658.jpg","long":108.2110163946899,"name":"Nhà Hàng Phố Đêm - Nguyễn Tất Thành","octime":" 09:30 - 23:00","rate":7,"type":"Nhà hàng","id":"iW9D0P6e-"},"73":{"address":"57 Hoàng Văn Thụ","district":"Quận Hải Châu","image":"https://images.foody.vn/video/s800x450/foody-foody-album1-jpg-970-636020990481181336-636288982703196109.jpg","lat":16.062865,"local_image":"foody-foody-album1-jpg-970-636020990481181336-636288982703196109.jpg","long":108.220794,"name":"The Salmon Restaurant","octime":" 10:00 - 22:00","rate":8.4,"type":"Nhà hàng","id":"WrSYT0nTF"},"74":{"address":"Lô 1 - 4 Khuê Mỹ Đông 1","district":"Quận Ngũ Hành Sơn","image":"https://images.foody.vn/res/g73/720654/prof/s576x330/foody-mobile-chili-jpg.jpg","lat":16.0361989183074,"local_image":"foody-mobile-chili-jpg.jpg","long":108.2450069573913,"name":"Chilling Coffee","octime":" 06:00 - 23:00","rate":0,"type":"Café/Dessert","id":"nswi65k8L"},"75":{"address":"5 - 7 Lê Quang Hòa, P, Hòa Xuân","district":"Quận Cẩm Lệ","image":"https://images.foody.vn/video/s800x450/foody-upload-api-foody-foody-upload-api-foody-album1-1-jpg-18082410-180824173144.jpg","lat":16.023872,"local_image":"foody-upload-api-foody-foody-upload-api-foody-album1-1-jpg-18082410-180824173144.jpg","long":108.224889,"name":"Nhà Hàng Cham - Món Việt","octime":" 10:00 - 22:00","rate":9.1,"type":"Nhà hàng","id":"F-3cl4iSp"},"76":{"address":"85 Hoàng Kế Viêm, P. Bắc Mỹ An","district":"Quận Ngũ Hành Sơn","image":"https://images.foody.vn/video/s800x450/foody-upload-api-foody-foody-mozafiato-restaurant-461-6367003862357-180817174909.jpg","lat":16.049179,"local_image":"foody-upload-api-foody-foody-mozafiato-restaurant-461-6367003862357-180817174909.jpg","long":108.244315,"name":"Mozzafiato Restaurant - Hoàng Kế Viêm","octime":" 10:00 - 23:00","rate":7.5,"type":"Nhà hàng","id":"9Td6mNLSL"},"77":{"address":"333 Yên Khê 2","district":"Quận Thanh Khê","image":"https://images.foody.vn/res/g86/857554/prof/s576x330/foody-upload-api-foody-mobile-foody-non-la-quan-85-181204100953.jpg","lat":16.069576,"local_image":"foody-upload-api-foody-mobile-foody-non-la-quan-85-181204100953.jpg","long":108.178355,"name":"Nón Lá Quán - Nhậu Bình Dân","octime":" 16:00 - 23:00","rate":0,"type":"Quán nhậu","id":"Dqwo2j19n"},"78":{"address":"Pullman Danang Beach Resort, 101 Võ Nguyên Giáp, P. Khuê Mỹ","district":"Quận Ngũ Hành Sơn","image":"https://images.foody.vn/res/g9/80231/prof/s576x330/foody-upload-api-foody-mobile-epice-restaurant-jpg-180711103517.jpg","lat":16.040447,"local_image":"foody-upload-api-foody-mobile-epice-restaurant-jpg-180711103517.jpg","long":108.249957,"name":"Epice Restaurant - Pullman Danang Beach Resort","octime":" 06:30 - 22:00","rate":8.9,"type":"Nhà hàng, ","id":"Ny0gtqs5V"},"79":{"address":"531 Nguyễn Tất Thành","district":"Quận Thanh Khê","image":"https://images.foody.vn/res/g2/11901/prof/s576x330/foody-mobile-cay-dua-ii-dac-san-vung-mien-da-nang.jpg","lat":16.074146,"local_image":"foody-mobile-cay-dua-ii-dac-san-vung-mien-da-nang.jpg","long":108.203638,"name":"Cây Dừa II - Đặc Sản Vùng Miền","octime":" 09:00 - 23:00","rate":7,"type":"Quán ăn","id":"5t6yL0Ogc"},"80":{"address":"Lô 1404 Xô Viết Nghệ Tĩnh","district":"Quận Hải Châu","image":"https://images.foody.vn/res/g2/10078/prof/s576x330/foody-mobile-me-jpg-879-636295036223685657.jpg","lat":16.032572,"local_image":"foody-mobile-me-jpg-879-636295036223685657.jpg","long":108.219092,"name":"Si Quán - Nhậu Bình Dân","octime":" 09:00 - 22:30","rate":6.6,"type":"Quán nhậu","id":"YH3sggdUq"},"81":{"address":"413 Nguyễn Tất Thành, P. Tam Thuận","district":"Quận Thanh Khê","image":"https://images.foody.vn/res/g1/8167/prof/s576x330/foody-mobile-tom-jpg-123-636295049739227491.jpg","lat":16.0765568,"local_image":"foody-mobile-tom-jpg-123-636295049739227491.jpg","long":108.207547,"name":"Hải Sản Cây Dừa I","octime":" 16:00 - 22:30","rate":6.5,"type":"Quán ăn","id":"s6yv2Z0_d"},"82":{"address":"275 Nguyễn Văn Linh","district":"Quận Thanh Khê","image":"https://images.foody.vn/res/g29/282559/prof/s576x330/foody-mobile-ga-jpg-243-636174817556247991.jpg","lat":16.059773,"local_image":"foody-mobile-ga-jpg-243-636174817556247991.jpg","long":108.210966,"name":"The Garden House Cafe Bistro","octime":" 07:00 - 22:00","rate":7.3,"type":"Café/Dessert","id":"zXFBMp89e"},"83":{"address":"152 Phan Thanh","district":"Quận Thanh Khê","image":"https://images.foody.vn/res/g16/159179/prof/s576x330/foody-mobile-12308623_41143225569-758-635974381511373395.jpg","lat":16.060342,"local_image":"foody-mobile-12308623_41143225569-758-635974381511373395.jpg","long":108.209363,"name":"PapaSteak - Beefsteak","octime":" 06:00 - 22:00","rate":7.7,"type":"Nhà hàng","id":"hRrlJiXCJ"},"84":{"address":"Lô 46, Mỹ Khê 4, P. Phước Mỹ","district":"Quận Sơn Trà","image":"https://images.foody.vn/res/g64/632769/prof/s576x330/foody-mobile-me-jpg-448-636377233783266567.jpg","lat":16.0576932620179,"local_image":"foody-mobile-me-jpg-448-636377233783266567.jpg","long":108.2457048827686,"name":"Tamarind Tree Restaurant - Món Việt","octime":" 09:00 - 22:00","rate":8.8,"type":"Nhà hàng","id":"ym6S00hZF"},"85":{"address":"6 Đường 2 Tháng 9","district":"Quận Hải Châu","image":"https://images.foody.vn/res/g14/132524/prof/s576x330/foody-mobile-11146284_72602178418-174-635654041357158275.jpg","lat":16.059288,"local_image":"foody-mobile-11146284_72602178418-174-635654041357158275.jpg","long":108.223345,"name":"Draft Beer - 2 Tháng 9","octime":" 17:00 - 23:30","rate":7.2,"type":"Beer club","id":"demvFs5Av"},"86":{"address":"148/5 Lý Tự Trọng","district":"Quận Hải Châu","image":"https://images.foody.vn/res/g27/269373/prof/s576x330/foody-mobile-21587_16691679866962-940-636081476701030591.jpg","lat":16.07747,"local_image":"foody-mobile-21587_16691679866962-940-636081476701030591.jpg","long":108.215776,"name":"Boardgame Đà Nẵng","octime":" 08:30 - 21:30","rate":8,"type":"Café/Dessert","id":"IMgKqMBFe"},"87":{"address":"90 Đường 2 Tháng 9","district":"Quận Hải Châu","image":"https://images.foody.vn/video/s800x450/foody-thumbnail%20web-636247444701994165.jpg","lat":16.056289,"local_image":"foody-thumbnail%20web-636247444701994165.jpg","long":108.222107,"name":"Võ Sĩ Đạo Restaurant - Ẩm Thực Nhật","octime":" 10:00 - 22:00","rate":8,"type":"Nhà hàng","id":"0jvE-xGOG"}}