{"0":{"address":"1A Hải Phòng","district":"Quận Hải Châu","image":"https://images.foody.vn/res/g1/452/prof/s576x330/foody-mobile-foody-checkin-mi-qua-342-635992668227837464.jpg","lat":16.072465,"local_image":"foody-mobile-foody-checkin-mi-qua-342-635992668227837464.jpg","long":108.219076,"name":"Mì Quảng 1A","octime":" 07:00 - 22:00","rate":7.1,"type":"Quán ăn","id":"yJjut15g0"},"1":{"address":"251 Hoàng Diệu","district":"Quận Hải Châu","image":"https://images.foody.vn/res/g13/128477/prof/s576x330/foody-mobile-foody-mi-quang-thi-2-301-635781871679011519.jpg","lat":16.058542,"local_image":"foody-mobile-foody-mi-quang-thi-2-301-635781871679011519.jpg","long":108.217113,"name":"Mì Quảng Thi - Hoàng Diệu","octime":" 06:30 - 14:00 | 16:00 - 20:30","rate":7.8,"type":"Quán ăn","id":"ofUCDdsFA"},"2":{"address":"78 Phan Thanh","district":"Quận Thanh Khê","image":"https://images.foody.vn/res/g9/85267/prof/s576x330/foody-mobile-mi-q-jpg-913-636234590595743262.jpg","lat":16.0635628,"local_image":"foody-mobile-mi-q-jpg-913-636234590595743262.jpg","long":108.2085567,"name":"Mì Quảng Hương Quê - Phan Thanh","octime":" 07:00 - 21:00","rate":7.5,"type":"Quán ăn","id":"o2wGF6v64"},"3":{},"4":{"address":"46 Nguyễn Hữu Thọ","district":"Quận Hải Châu","image":"https://images.foody.vn/res/g13/127241/prof/s576x330/foody-mobile-foody-mi-quang-dong--578-635992662413536383.jpg","lat":16.0482827,"local_image":"foody-mobile-foody-mi-quang-dong--578-635992662413536383.jpg","long":108.2094022999999,"name":"Mì Quảng Đồng Quê","octime":" 06:00 - 22:00","rate":7.2,"type":"Quán ăn","id":"mrkq-HX-N"},"5":{},"6":{},"7":{"address":"1 - 5 Đặng Dung","district":"Quận Liên Chiểu","image":"https://images.foody.vn/res/g2/11787/prof/s576x330/foody-mobile-bb-jpg.jpg","lat":16.071401,"local_image":"foody-mobile-bb-jpg.jpg","long":108.15001,"name":"Mì Quảng Bích - Đặng Dung","octime":" 06:00 - 21:00","rate":7.2,"type":"Quán ăn","id":"75FABw5Er"},"8":{"address":"175 Lê Thanh Nghị","district":"Quận Hải Châu","image":"https://images.foody.vn/res/g5/46804/prof/s576x330/foody-upload-api-foody-mobile-huong-jpg-180822081018.jpg","lat":16.037918,"local_image":"foody-upload-api-foody-mobile-huong-jpg-180822081018.jpg","long":108.218084,"name":"Mì Quảng Hường","octime":" 06:00 - 13:30","rate":7.9,"type":"Quán ăn","id":"rL4D576Kc"},"9":{"address":"203 Lê Thanh Nghị","district":"Quận Hải Châu","image":"https://images.foody.vn/res/g13/125895/prof/s576x330/foody-mobile-men-jpg-547-636129155666205432.jpg","lat":16.039088,"local_image":"foody-mobile-men-jpg-547-636129155666205432.jpg","long":108.218002,"name":"Mì Quảng Mến","octime":" 06:00 - 22:00","rate":6.3,"type":"Quán ăn","id":"A-ORzW_SS"},"10":{"address":"K152/4 Phan Thanh","district":"Quận Thanh Khê","image":"https://images.foody.vn/res/g18/175643/prof/s576x330/foody-mobile-foody-mi-quang-ba-an-968-635981418704419613.jpg","lat":16.060278,"local_image":"foody-mobile-foody-mi-quang-ba-an-968-635981418704419613.jpg","long":108.209035,"name":"Mì Quảng Bà Anh","octime":" 06:00 - 09:30","rate":8,"type":"Quán ăn","id":"F4QJdBhAq"},"11":{"address":"108 Đống Đa","district":"Quận Hải Châu","image":"https://images.foody.vn/res/g1/6319/prof/s576x330/foody-mobile-foody-mi-quang-ba-ng-599-635883630247391792.jpg","lat":16.080883,"local_image":"foody-mobile-foody-mi-quang-ba-ng-599-635883630247391792.jpg","long":108.218647,"name":"Mì Quảng Bà Ngân","octime":" 09:00 - 21:00","rate":7.2,"type":"Quán ăn","id":"Sms2A8xZQ"},"12":{"address":"Lô 22A Phan Thành Tài","district":"Quận Hải Châu","image":"https://images.foody.vn/res/g2/15941/prof/s576x330/foody-mobile-ng2-jpg-439-636269005036339958.jpg","lat":16.054018,"local_image":"foody-mobile-ng2-jpg-439-636269005036339958.jpg","long":108.220558,"name":"Mì Quảng Bà Ngân 3","octime":" 07:00 - 21:00","rate":7.1,"type":"Quán ăn","id":"RNFsBTzMT"},"13":{"address":"59 Lê Hồng Phong, P. Phước Ninh","district":"Quận Hải Châu","image":"https://images.foody.vn/res/g4/32863/prof/s576x330/foody-mobile-sua-jpg-124-636349265405307798.jpg","lat":16.063767,"local_image":"foody-mobile-sua-jpg-124-636349265405307798.jpg","long":108.220346,"name":"Mì Quảng Sứa Hồng Vân","octime":" 15:00 - 21:30","rate":7.8,"type":"Quán ăn","id":"kTUwaikQ0"},"14":{"address":"163 Hồ Nghinh","district":"Quận Sơn Trà","image":"https://images.foody.vn/res/g27/261104/prof/s576x330/foody-mobile-247-jpg-314-636307797914103961.jpg","lat":16.0684522183086,"local_image":"foody-mobile-247-jpg-314-636307797914103961.jpg","long":108.2431871071457,"name":"Mì Quảng 24/7","octime":" 07:00 - 22:00","rate":5.9,"type":"Quán ăn","id":"RG2dLtTRz"},"15":{"address":"205 Nguyễn Hữu Thọ","district":"Quận Hải Châu","image":"https://images.foody.vn/res/g16/156681/prof/s576x330/foody-mobile-foody-mi-quang-hai-m-817-635871567861072556.jpg","lat":16.043374,"local_image":"foody-mobile-foody-mi-quang-hai-m-817-635871567861072556.jpg","long":108.210327,"name":"Mì Quảng Hải Mân - Nguyễn Hữu Thọ","octime":" 06:30 - 22:00","rate":7.6,"type":"Quán ăn","id":"8uw3NBv5i"},"16":{"address":"51 Thái Thị Bôi","district":"Quận Thanh Khê","image":"https://images.foody.vn/res/g27/267606/prof/s576x330/foody-mobile-ga-que-jpg.jpg","lat":16.068282,"local_image":"foody-mobile-ga-que-jpg.jpg","long":108.198916,"name":"Mì Quảng Gà Quê Tam Kỳ","octime":" 06:00 - 10:00","rate":8.1,"type":"Quán ăn","id":"ZxHoS3nhn"},"17":{"address":"95A Nguyễn Tri Phương","district":"Quận Hải Châu","image":"https://images.foody.vn/res/g13/124451/prof/s576x330/foody-mobile-mua-2-jpg-208-636132469433093520.jpg","lat":16.056368,"local_image":"foody-mobile-mua-2-jpg-208-636132469433093520.jpg","long":108.207005,"name":"Mì Quảng Bà Mua - Nguyễn Tri Phương","octime":" 06:30 - 21:00","rate":7,"type":"Quán ăn","id":"3qhlp_R-h"},"18":{"address":"258 Đống Đa","district":"Quận Hải Châu","image":"https://images.foody.vn/res/g1/5725/prof/s576x330/foody-mobile-foody-mi-quang-que-t-988-636107375144909185.jpg","lat":16.076744,"local_image":"foody-mobile-foody-mi-quang-que-t-988-636107375144909185.jpg","long":108.215976,"name":"Mỳ Quảng Quê - Tinh Hoa Ẩm Thực Đất Quảng","octime":" 06:00 - 21:30","rate":8.1,"type":"Quán ăn","id":"7-6MfAyK5"},"19":{"address":"16 Đặng Dung, P. Hòa Khánh Bắc","district":"Quận Liên Chiểu","image":"https://images.foody.vn/res/g15/145719/prof/s576x330/foody-mobile-mua2-jpg-721-636123847091933702.jpg","lat":16.070908,"local_image":"foody-mobile-mua2-jpg-721-636123847091933702.jpg","long":108.15015,"name":"Mì Quảng Bà Mua - Đặng Dung","octime":" 06:00 - 22:00","rate":7.5,"type":"Quán ăn","id":"xJ9AcxhOm"},"20":{"address":"65 Vũ Ngọc Phan ","district":"Quận Liên Chiểu","image":"https://images.foody.vn/res/g11/108471/prof/s576x330/foody-upload-api-foody-mobile-cloc-jpg-180620104648.jpg","lat":16.0687705634593,"local_image":"foody-upload-api-foody-mobile-cloc-jpg-180620104648.jpg","long":108.1489740820006,"name":"Quán Tâm - Mì Quảng Cá Lóc Đại Lộc","octime":" 06:00 - 21:00","rate":7.9,"type":"Quán ăn","id":"7x507gRHa"},"21":{},"22":{"address":"486 Nguyễn Tri Phương","district":"Quận Hải Châu","image":"https://images.foody.vn/res/g5/46820/prof/s576x330/foody-mobile-mi-quang-quynh-da-nang-131231031459.jpg","lat":16.050696,"local_image":"foody-mobile-mi-quang-quynh-da-nang-131231031459.jpg","long":108.213455,"name":"Mì Quảng Quỳnh","octime":" 07:00 - 21:30","rate":7.4,"type":"Quán ăn","id":"gSwXM6oa_"},"23":{"address":"77 Hà Huy Tập, P. Chính Gián","district":"Quận Thanh Khê","image":"https://images.foody.vn/res/g5/46998/prof/s576x330/foody-mobile-mi-quang-ga-xuan-da-nang-140103100920.jpg","lat":16.06764,"local_image":"foody-mobile-mi-quang-ga-xuan-da-nang-140103100920.jpg","long":108.19217,"name":"Mì Quảng Gà Xuân","octime":" 07:00 - 21:30","rate":7.7,"type":"Quán ăn","id":"VVbIN3uoM"},"24":{"address":"135 Nguyễn Tất Thành","district":"Quận Hải Châu","image":"https://images.foody.vn/res/g70/695042/prof/s576x330/foody-mobile-nhung-jpg-909-636438281964443273.jpg","lat":16.082874,"local_image":"foody-mobile-nhung-jpg-909-636438281964443273.jpg","long":108.213136,"name":"Mì Quảng Nhung - Nguyễn Tất Thành","octime":" 06:00 - 10:00","rate":9.3,"type":"Quán ăn","id":"k8_iM34EK7"},"25":{"address":"809 Ngô Quyền","district":"Quận Sơn Trà","image":"https://images.foody.vn/res/g2/13572/prof/s576x330/foody-upload-api-foody-mobile-ba-chau-190129173948.jpg","lat":16.068783,"local_image":"foody-upload-api-foody-mobile-ba-chau-190129173948.jpg","long":108.232328,"name":"Ba Châu - Mì Quảng Phú Chiêm","octime":" 06:00 - 21:00","rate":8.1,"type":"Quán ăn","id":"Z_hD1lOZZ"},"26":{"address":"178 Thái Thị Bôi","district":"Quận Thanh Khê","image":"https://images.foody.vn/res/g90/897431/prof/s576x330/foody-upload-api-foody-mobile-cach-nau-mi-quang-ga-190326090635.jpg","lat":16.068491,"local_image":"foody-upload-api-foody-mobile-cach-nau-mi-quang-ga-190326090635.jpg","long":108.196491,"name":"Đặc Sản Mỳ Quảng Bà Lanh","octime":" 06:00 - 21:00","rate":9.1,"type":"Quán ăn","id":"RZcJyuHuk"},"27":{"address":"88 Phạm Tu","district":"Quận Sơn Trà","image":"https://images.foody.vn/res/g68/673460/prof/s576x330/foody-mobile-bic-jpg-308-636356486474824613.jpg","lat":16.066929,"local_image":"foody-mobile-bic-jpg-308-636356486474824613.jpg","long":108.240414,"name":"Mì Quảng Bích - Phạm Tu","octime":" 06:00 - 10:00","rate":8.5,"type":"Quán ăn","id":"XRtMpJup-"},"28":{"address":"14 Phan Thanh","district":"Quận Thanh Khê","image":"https://images.foody.vn/res/g2/13578/prof/s576x330/foody-mobile-mi-quang-phu-chiem-phan-thanh-da-nang.jpg","lat":16.065795,"local_image":"foody-mobile-mi-quang-phu-chiem-phan-thanh-da-nang.jpg","long":108.207736,"name":"Mì Quảng Phú Chiêm - Phan Thanh","octime":" 06:00 - 10:00","rate":8.2,"type":"Quán ăn","id":"9NUj7KhxJ"},"29":{},"30":{"address":"29 Trương Chí Cương","district":"Quận Hải Châu","image":"https://images.foody.vn/res/g14/131495/prof/s576x330/foody-upload-api-foody-mobile-mi-quang-jpg-180921151907.jpg","lat":16.030386,"local_image":"foody-upload-api-foody-mobile-mi-quang-jpg-180921151907.jpg","long":108.225635,"name":"Mì Quảng Đại Lộc - Trương Chí Cương","octime":" 07:00 - 20:30","rate":8.5,"type":"Quán ăn","id":"uh09GOgzK"},"31":{"address":"150 Ông Ích Khiêm","district":"Quận Hải Châu","image":"https://images.foody.vn/res/g20/193651/prof/s576x330/foody-mobile-960-jpg-700-636143751863786960.jpg","lat":16.075743,"local_image":"foody-mobile-960-jpg-700-636143751863786960.jpg","long":108.212341,"name":"Mì Quảng Quê Hương","octime":" 06:30 - 21:30","rate":7.9,"type":"Quán ăn","id":"O5-pPEJgq"},"32":{"address":"86 Hoàng Hoa Thám, P. Thạc Gián","district":"Quận Thanh Khê","image":"https://images.foody.vn/res/g5/47003/prof/s576x330/foody-mobile-mm-jpg-966-636110995301749844.jpg","lat":16.067869,"local_image":"foody-mobile-mm-jpg-966-636110995301749844.jpg","long":108.210052,"name":"Mì Quảng Thanh","octime":" 06:00 - 10:00","rate":7.7,"type":"Quán ăn","id":"8thH6J8jT"},"33":{"address":"1 Phan Tứ, P. Mỹ An","district":"Quận Ngũ Hành Sơn","image":"https://images.foody.vn/res/g1/8110/prof/s576x330/foody-mobile-my-quang-phuong.jpg","lat":16.045117,"local_image":"foody-mobile-my-quang-phuong.jpg","long":108.240834,"name":"Mì Quảng Phương - Phan Tứ","octime":" 06:00 - 23:00","rate":7.8,"type":"Quán ăn","id":"bVRsxQLxu"},"34":{"address":"41 Đào Duy Anh","district":"Quận Hải Châu","image":"https://images.foody.vn/res/g12/112645/prof/s576x330/foody-mobile-foody-mi-quang-ba-la-242-635980632678158358.jpg","lat":16.059084,"local_image":"foody-mobile-foody-mi-quang-ba-la-242-635980632678158358.jpg","long":108.21009,"name":"Mì Quảng Bà Lạc","octime":" 06:00 - 22:00","rate":8,"type":"Quán ăn","id":"qpfPVg5DY"},"35":{"address":"40 Ngũ Hành Sơn","district":"Quận Ngũ Hành Sơn","image":"https://images.foody.vn/res/g24/230966/prof/s576x330/foody-mobile-mua-2-jpg-362-635974390585796874.jpg","lat":16.05032,"local_image":"foody-mobile-mua-2-jpg-362-635974390585796874.jpg","long":108.237684,"name":"Mì Quảng Bà Mua - Ngũ Hành Sơn","octime":" 06:30 - 22:00","rate":7.2,"type":"Quán ăn","id":"cjHrXIAw8x"},"36":{"address":"165 Núi Thành","district":"Quận Hải Châu","image":"https://images.foody.vn/res/g10/97101/prof/s576x330/foody-mobile-p_20150708_122612-jp-139-635762631488803443.jpg","lat":16.046607,"local_image":"foody-mobile-p_20150708_122612-jp-139-635762631488803443.jpg","long":108.221037,"name":"Quê Xưa - Mì Quảng & Bánh Tráng Thịt Heo - Núi Thành","octime":" 06:00 - 22:00","rate":7.5,"type":"Quán ăn","id":"wU3ZdaCgi"},"37":{"address":"6 Đặng Thai Mai","district":"Quận Thanh Khê","image":"https://images.foody.vn/res/g19/187134/prof/s576x330/foody-mobile-ga-2-jpg-545-635834706739722643.jpg","lat":16.0609407,"local_image":"foody-mobile-ga-2-jpg-545-635834706739722643.jpg","long":108.2117081,"name":"Mì Quảng Tiên","octime":" 06:30 - 17:30","rate":7.8,"type":"Quán ăn","id":"oLlJwo91Q"},"38":{"address":"908 Ngô Quyền (Ngã Tư Nguyễn Công Trứ - Ngô Quyền)","district":"Quận Sơn Trà","image":"https://images.foody.vn/res/g78/772475/prof/s576x330/foody-upload-api-foody-mobile-foody-mobile-ac-jpg--180822171659.jpg","lat":16.067643,"local_image":"foody-upload-api-foody-mobile-foody-mobile-ac-jpg--180822171659.jpg","long":108.232311,"name":"Mì Quảng Cô Nuôi","octime":" 14:30 - 23:59","rate":9.3,"type":"Quán ăn","id":"QXwzHw9dm"},"39":{"address":"152 Nguyễn Hoàng","district":"Quận Thanh Khê","image":"https://images.foody.vn/res/g13/129187/prof/s576x330/foody-mobile-quang-jpg-134-636317597997518218.jpg","lat":16.061985,"local_image":"foody-mobile-quang-jpg-134-636317597997518218.jpg","long":108.213894,"name":"Bà Hoành - Cháo & Mì Quảng","octime":" 06:00 - 13:30 | 16:00 - 19:00","rate":7.5,"type":"Quán ăn","id":"cRW7m3L6q"},"40":{"address":"42 Đào Duy Từ","district":"Quận Thanh Khê","image":"https://images.foody.vn/res/g67/667629/prof/s576x330/foody-mobile-m-e-jpg-772-636334641398849023.jpg","lat":16.0680201778669,"local_image":"foody-mobile-m-e-jpg-772-636334641398849023.jpg","long":108.2125039771199,"name":"Mì Quảng Bà Dinh","octime":" 06:00 - 11:00","rate":8.7,"type":"Quán ăn","id":"PTz1zBHsy"},"41":{"address":"63 Phạm Văn Nghị, P. Thạc Gián","district":"Quận Thanh Khê","image":"https://images.foody.vn/res/g78/771844/prof/s576x330/foody-upload-api-foody-mobile-mi-ga-1-jpg-180821140325.jpg","lat":16.0572674,"local_image":"foody-upload-api-foody-mobile-mi-ga-1-jpg-180821140325.jpg","long":108.210088,"name":"Như - Mì Quảng Phú Chiêm","octime":" 05:00 - 13:00","rate":8.5,"type":"Quán ăn","id":"c_QnObCVt"},"42":{"address":"454 Ngô Quyền ","district":"Quận Sơn Trà","image":"https://images.foody.vn/res/g66/656702/prof/s576x330/foody-upload-api-foody-mobile-mua-jpg-180321115053.jpg","lat":16.0865575847442,"local_image":"foody-upload-api-foody-mobile-mua-jpg-180321115053.jpg","long":108.2401193413391,"name":"Mì Quảng Bà Mua - Ngô Quyền","octime":" 06:00 - 22:00","rate":5.8,"type":"Quán ăn","id":"rotDcoMO6"},"43":{"address":"103 Phạm Cự Lượng","district":"Quận Sơn Trà","image":"https://images.foody.vn/res/g65/649010/prof/s576x330/foody-mobile-m-sam-jpg-658-636268263285154713.jpg","lat":16.05669,"local_image":"foody-mobile-m-sam-jpg-658-636268263285154713.jpg","long":108.237394,"name":"Mì Quảng Bà Sâm - Phạm Cự Lượng","octime":" 06:00 - 11:00","rate":9,"type":"Quán ăn","id":"5VTO0vBbC"},"44":{"address":"100 Hà Huy Tập","district":"Quận Thanh Khê","image":"https://images.foody.vn/res/g30/298620/prof/s576x330/foody-mobile-btr-jpg-809-636223122064925094.jpg","lat":16.06738,"local_image":"foody-mobile-btr-jpg-809-636223122064925094.jpg","long":108.19193,"name":"Đại Đồng - Bánh Tráng Thịt Heo & Mì Quảng","octime":" 06:00 - 22:00","rate":6.6,"type":"Quán ăn","id":"9DtZIfOirR"},"45":{"address":"200 Đống Đa, P. Thuận Phước","district":"Quận Hải Châu","image":"https://images.foody.vn/res/g1/8103/prof/s576x330/foody-mobile-quan-200.jpg","lat":16.0790196,"local_image":"foody-mobile-quan-200.jpg","long":108.217085,"name":"Mì Quảng 200","octime":" 16:00 - 21:00","rate":7.9,"type":"Quán ăn","id":"y7tjXWFNp"},"46":{"address":"445 Núi Thành","district":"Quận Hải Châu","image":"https://images.foody.vn/res/g13/128404/prof/s576x330/foody-mobile-ba-thi-2-jpg-506-636167828388927087.jpg","lat":16.0370542,"local_image":"foody-mobile-ba-thi-2-jpg-506-636167828388927087.jpg","long":108.2223004,"name":"Mì Quảng Bà Thị","octime":" 06:00 - 10:00","rate":8.2,"type":"Quán ăn","id":"QFRQP7wGQ"},"47":{"address":"178 Huỳnh Thúc Kháng","district":"Quận Hải Châu","image":"https://images.foody.vn/res/g13/125678/prof/s576x330/foody-mobile-bb-jpg-793-636322490198891707.jpg","lat":16.057212,"local_image":"foody-mobile-bb-jpg-793-636322490198891707.jpg","long":108.218107,"name":"A Châu - Phở & Mì Quảng","octime":" 07:00 - 21:00","rate":8,"type":"Quán ăn","id":"SwrZ5B01i"}}